{"type": "FeatureCollection","features": [{"link": "https://www.reuters.com/article/us-usa-trump-russia-stone/u-s-intel-committee-subpoenas-comedian-in-russia-election-meddling-probe-idUSKBN1DU0NJ", "src": "https://s4.reutersmedia.net/resources_v2/images/rcom-default.png", "end": {"geometry": {"coordinates": [104.37036008653911, 60.36841247014346]}}, "title": "01-12-2017 : U.S. intel committee subpoenas comedian in Russia election meddling probe (United States-Russia)", "geometry": {"coordinates": [-99.58654043909773, 32.676483317720354]}, "relation": 0.178},
{"link": "https://www.reuters.com/article/us-pakistan-usadrone/suspected-u-s-drone-targets-haqqani-militants-in-pakistan-killing-four-idUSKBN1DU0U6", "src": "https://s4.reutersmedia.net/resources_v2/images/rcom-default.png", "end": {"geometry": {"coordinates": [67.69155595663791, 30.688383270193487]}}, "title": "01-12-2017 : Suspected U.S. drone targets Haqqani militants in Pakistan, killing four (United States-Pakistan)", "geometry": {"coordinates": [-94.38568442670248, 38.11566093915947]}, "relation": -0.364},
{"link": "https://www.reuters.com/article/us-usa-turkey-zarrab-vakifbank/turkeys-vakifbank-denies-involvementin-processes-mentioned-in-u-s-lawsuit-idUSKBN1DV3Z4", "src": "https://s4.reutersmedia.net/resources_v2/images/rcom-default.png", "end": {"geometry": {"coordinates": [-100.41539961689409, 36.24967174562235]}}, "title": "02-12-2017 : Turkey's Vakifbank denies involvement\u00a0in processes mentioned in U.S. lawsuit (Turkey-United States)", "geometry": {"coordinates": [34.85338358789158, 39.26700824210736]}, "relation": -0.299},
{"link": "https://www.reuters.com/article/us-iran-pompeo/cia-chief-pompeo-says-he-warned-irans-soleimani-over-iraq-aggression-idUSKBN1DX02P", "src": "https://s3.reutersmedia.net/resources/r/?m=02&d=20171203&t=2&i=1212173811&w=1200&r=LYNXMPEDB202L", "end": {"geometry": {"coordinates": [43.38626713875726, 33.534038164964926]}}, "title": "04-12-2017 : CIA chief Pompeo says he warned Iran's Soleimani over Iraq aggression (Iran-Iraq)", "geometry": {"coordinates": [55.53907069021133, 30.54706711039837]}, "relation": -0.281},
{"link": "https://www.reuters.com/article/us-mali-france/malis-president-contradicts-french-account-of-military-strike-idUSKBN1DX0B0", "src": "https://s4.reutersmedia.net/resources_v2/images/rcom-default.png", "end": {"geometry": {"coordinates": [2.629859290968917, 46.03300968013686]}}, "title": "04-12-2017 : Mali's president contradicts French account of military strike (Mali-France)", "geometry": {"coordinates": [-3.9513468711100437, 17.314098244580446]}, "relation": -0.328},
{"link": "https://www.reuters.com/article/us-northkorea-missiles-china/china-says-resurfacing-tensions-on-korean-peninsula-regrettable-idUSKBN1DY0FZ", "src": "https://s3.reutersmedia.net/resources/r/?m=02&d=20171204&t=2&i=1212268255&w=1200&r=LYNXMPEDB3086", "end": {"geometry": {"coordinates": [128.19900211840317, 37.51130404847901]}}, "title": "05-12-2017 : China says resurfacing tensions on Korean peninsula regrettable (China-Korea)", "geometry": {"coordinates": [104.75210188062864, 33.5917256010141]}, "relation": -0.429},
{"link": "https://www.reuters.com/article/us-mideast-crisis-syria-ghouta/syrian-russian-jets-bomb-residential-areas-in-eastern-ghouta-witnesses-monitor-idUSKBN1DY01J", "src": "https://s2.reutersmedia.net/resources/r/?m=02&d=20171204&t=2&i=1212244300&w=1200&r=LYNXMPEDB300H", "end": {"geometry": {"coordinates": [106.14578180402047, 65.39249391057001]}}, "title": "05-12-2017 : Syrian, Russian jets bomb residential areas in eastern Ghouta: witnesses, monitor (Syria-Russia)", "geometry": {"coordinates": [38.67755594607394, 34.86436334108681]}, "relation": -0.211},
{"link": "https://www.reuters.com/article/us-mideast-crisis-syria-jordan/jordan-sentences-syrian-militant-to-death-over-border-attack-idUSKBN1DY1BQ", "src": "https://s3.reutersmedia.net/resources/r/?m=02&d=20171204&t=2&i=1212304232&w=1200&r=LYNXMPEDB30R6", "end": {"geometry": {"coordinates": [38.95279270018935, 34.98294105713338]}}, "title": "05-12-2017 : Jordan sentences Syrian militant to death over border attack (Jordan-Syria)", "geometry": {"coordinates": [36.06499281268017, 30.15598366863262]}, "relation": -0.432},
{"link": "https://www.reuters.com/article/us-yemen-security-usa/u-s-calls-on-yemens-warring-factions-to-re-energize-talks-idUSKBN1DY2RN", "src": "https://s4.reutersmedia.net/resources_v2/images/rcom-default.png", "end": {"geometry": {"coordinates": [48.774942520705366, 15.2318766319185]}}, "title": "05-12-2017 : U.S. calls on Yemen's warring factions to re-energize talks (United States-Yemen)", "geometry": {"coordinates": [-93.93981679094433, 32.13010547821541]}, "relation": -0.209},
{"link": "https://www.reuters.com/article/us-swiss-nigeria/swiss-to-return-321-million-in-stolen-funds-to-nigeria-idUSKBN1DY2T1", "src": "https://s4.reutersmedia.net/resources_v2/images/rcom-default.png", "end": {"geometry": {"coordinates": [8.686134054409704, 8.769825700330507]}}, "title": "05-12-2017 : Swiss to return $321 million in stolen funds to Nigeria (Switzerland-Nigeria)", "geometry": {"coordinates": [8.359048063103382, 46.911091987567744]}, "relation": -0.225},
{"link": "https://www.reuters.com/article/us-newzealand-china/new-zealand-foreign-minister-praises-china-ties-damps-fears-of-protectionism-idUSKBN1DZ0IE", "src": "https://s4.reutersmedia.net/resources/r/?m=02&d=20171205&t=2&i=1212414544&w=1200&r=LYNXMPEDB408U", "end": {"geometry": {"coordinates": [105.6620125693732, 37.619121150894685]}}, "title": "06-12-2017 : New Zealand foreign minister praises China ties, damps fears of protectionism (New Zealand-China)", "geometry": {"coordinates": [175.28155843266003, -41.2998219438782]}, "relation": 0.187},
{"link": "https://www.reuters.com/article/us-finland-russia/finland-suspects-russian-aircraft-violated-airspace-idUSKBN1DZ16S", "src": "https://s4.reutersmedia.net/resources_v2/images/rcom-default.png", "end": {"geometry": {"coordinates": [105.69012076994635, 62.531924683257955]}}, "title": "06-12-2017 : Finland suspects Russian aircraft violated airspace (Finland-Russia)", "geometry": {"coordinates": [26.185319432625953, 62.391105886961725]}, "relation": -0.492},
{"link": "https://www.reuters.com/article/us-europe-migrants-germany-arrests/afghan-suspect-arrested-in-germany-over-migrant-deaths-at-sea-idUSKBN1DZ1KD", "src": "https://s4.reutersmedia.net/resources_v2/images/rcom-default.png", "end": {"geometry": {"coordinates": [10.31704916628554, 50.97275756259941]}}, "title": "06-12-2017 : Afghan suspect arrested in Germany over migrant deaths at sea (Afghanistan-Germany)", "geometry": {"coordinates": [67.9866625818009, 34.3792269918751]}, "relation": -0.346},
{"link": "https://www.reuters.com/article/us-venezuela-un/venezuelas-former-ambassador-to-u-n-leaves-the-united-states-source-idUSKBN1DZ2OJ", "src": "https://s4.reutersmedia.net/resources_v2/images/rcom-default.png", "end": {"geometry": {"coordinates": [-91.66628033050762, 33.60183663071467]}}, "title": "06-12-2017 : Venezuela's former ambassador to U.N. leaves the United States: source (Venezuela-United States)", "geometry": {"coordinates": [-66.94053594508952, 6.108252333193818]}, "relation": 0.189},
{"link": "https://www.reuters.com/article/us-russia-usa-media-restrictions/russia-designates-rfe-rl-and-voice-of-america-as-foreign-agents-idUSKBN1DZ0MP", "src": "https://s1.reutersmedia.net/resources/r/?m=02&d=20171205&t=2&i=1212420422&w=1200&r=LYNXMPEDB40C2", "end": {"geometry": {"coordinates": [-97.98723727550836, 34.269001453622785]}}, "title": "06-12-2017 : Russia designates Radio Free Europe and Voice of America as 'foreign agents' (Russia-United States)", "geometry": {"coordinates": [110.23961198829598, 57.215160284217895]}, "relation": 0.191},
{"link": "https://www.reuters.com/article/us-france-politics-poll/after-africa-trip-frances-macron-breaks-50-percent-popularity-rating-idUSKBN1DZ2RT", "src": "https://s3.reutersmedia.net/resources/r/?m=02&d=20171205&t=2&i=1212503052&w=1200&r=LYNXMPEDB41HK", "end": {"geometry": {"coordinates": [1.9862749897408554, 46.14363189899433]}}, "title": "06-12-2017 : After Africa trip, France's Macron breaks 50 percent popularity rating (Africa-France)", "geometry": {"coordinates": [34.56268082547217, -9.171865698844094]}, "relation": 0.22},
{"link": "https://www.reuters.com/article/us-australia-politics-china/china-accuses-australia-of-paranoia-over-foreign-influence-laws-idUSKBN1E00HQ", "src": "https://s4.reutersmedia.net/resources_v2/images/rcom-default.png", "end": {"geometry": {"coordinates": [130.75047525315398, -28.434145482038858]}}, "title": "07-12-2017 : China accuses Australia of paranoia over foreign influence laws (China-Australia)", "geometry": {"coordinates": [102.02676203476832, 36.58677746421243]}, "relation": -0.328},
{"link": "https://www.reuters.com/article/us-iran-us-politics/iran-denies-u-s-accusation-of-destabilizing-the-region-idUSKBN1E00PF", "src": "https://s4.reutersmedia.net/resources/r/?m=02&d=20171206&t=2&i=1212580292&w=1200&r=LYNXMPEDB50H9", "end": {"geometry": {"coordinates": [-91.11880857226213, 33.38670703191004]}}, "title": "07-12-2017 : Iran denies U.S. accusation of destabilizing the region (Iran-United States)", "geometry": {"coordinates": [53.28021092224876, 31.807487802425342]}, "relation": -0.348},
{"link": "https://www.reuters.com/article/us-pakistan-blast/bomb-blast-kills-nine-people-in-pakistan-near-afghan-border-idUSKBN1E00TA", "src": "https://s4.reutersmedia.net/resources_v2/images/rcom-default.png", "end": {"geometry": {"coordinates": [69.67366044153535, 33.44419560698218]}}, "title": "07-12-2017 : Bomb blast kills nine people in Pakistan, near Afghan border (Pakistan-Afghanistan)", "geometry": {"coordinates": [72.14114270113659, 28.075633551816733]}, "relation": -0.401},
{"link": "https://www.reuters.com/article/us-usa-trump-israel-turkey/turkey-warns-u-s-that-jerusalem-embassy-move-is-grave-mistake-idUSKBN1E010H", "src": "https://s4.reutersmedia.net/resources/r/?m=02&d=20171206&t=2&i=1212593715&w=1200&r=LYNXMPEDB50NT", "end": {"geometry": {"coordinates": [-94.34498240958813, 36.49848636921076]}}, "title": "07-12-2017 : Turkey warns U.S. that Jerusalem embassy move is 'grave mistake' (Turkey-United States)", "geometry": {"coordinates": [35.63734381396471, 39.01937992365351]}, "relation": -0.39},
{"link": "https://www.reuters.com/article/us-uas-trump-israel-russia/kremlin-u-s-embassy-move-to-jerusalem-may-further-worsen-israel-palestinian-relations-idUSKBN1E012J", "src": "https://s3.reutersmedia.net/resources/r/?m=02&d=20171206&t=2&i=1212597144&w=1200&r=LYNXMPEDB50PJ", "end": {"geometry": {"coordinates": [35.43537754465499, 31.94895146858195]}}, "title": "07-12-2017 : Kremlin: U.S. embassy move to Jerusalem may further worsen Israel-Palestinian relations (United States-Israel)", "geometry": {"coordinates": [-98.8611466566584, 37.79623874357413]}, "relation": -0.202},
{"link": "https://www.reuters.com/article/us-mideast-crisis-syria-france/france-says-syrian-government-obstructing-peace-talks-idUSKBN1E01QD", "src": "https://s4.reutersmedia.net/resources_v2/images/rcom-default.png", "end": {"geometry": {"coordinates": [39.07627304133731, 35.22118000061684]}}, "title": "07-12-2017 : France says Syrian government obstructing peace talks (France-Syria)", "geometry": {"coordinates": [2.5054308581666436, 46.35625959377231]}, "relation": 0.304},
{"link": "https://www.reuters.com/article/us-canada-hostage-trial/somali-man-found-guilty-in-kidnapping-of-canadian-journalist-idUSKBN1E108C", "src": "https://s4.reutersmedia.net/resources/r/?m=02&d=20171207&t=2&i=1212760267&w=1200&r=LYNXMPEDB604S", "end": {"geometry": {"coordinates": [-110.49239031816737, 55.16375590409956]}}, "title": "07-12-2017 : Somali man found guilty in kidnapping of Canadian journalist (Raas Cabaad-Canada)", "geometry": {"coordinates": [46.69952117167546, 5.390222864815396]}, "relation": -0.203},
{"link": "https://www.reuters.com/article/us-malaysia-politics/girding-malaysian-ruling-party-for-election-najib-rallies-muslims-over-jerusalem-idUSKBN1E10GO", "src": "https://s2.reutersmedia.net/resources/r/?m=02&d=20171207&t=2&i=1212782095&w=1200&r=LYNXMPEDB609D", "end": {"geometry": {"coordinates": [34.92991660559927, 31.53880180595591]}}, "title": "08-12-2017 : Girding Malaysian ruling party for election, Najib rallies Muslims over Jerusalem (Malaysia-Israel)", "geometry": {"coordinates": [101.63407860678142, 4.069260315500294]}, "relation": 0.184},
{"link": "https://www.reuters.com/article/us-usa-trump-israel-jordan/jordan-rejects-trumps-move-on-jerusalem-says-legally-null-government-spokesman-idUSKBN1E02WQ", "src": "https://s3.reutersmedia.net/resources/r/?m=02&d=20171207&t=2&i=1212784526&w=1200&r=LYNXMPEDB604Q", "end": {"geometry": {"coordinates": [35.08929647368996, 31.887570789876676]}}, "title": "08-12-2017 : Jordan rejects Trump's move on Jerusalem as legally 'null' (Jordan-Israel)", "geometry": {"coordinates": [35.93310266849271, 30.106872212994357]}, "relation": -0.235},
{"link": "https://www.reuters.com/article/us-usa-trump-israel-saudi-capital/saudi-arabia-condemns-trump-decision-to-recognize-jerusalem-as-capital-of-israel-idUSKBN1E103Y", "src": "https://s4.reutersmedia.net/resources_v2/images/rcom-default.png", "end": {"geometry": {"coordinates": [34.820486023012, 31.41160835943988]}}, "title": "08-12-2017 : Saudi Arabia condemns Trump decision to recognize Jerusalem as capital of Israel (Saudi Arabia-Israel)", "geometry": {"coordinates": [42.68311077485437, 22.06377178754438]}, "relation": -0.191},
{"link": "https://www.reuters.com/article/us-mideast-crisis-syria-talks/syrian-government-delegation-to-return-to-geneva-on-sunday-for-peace-talks-sana-idUSKBN1E10VH", "src": "https://s3.reutersmedia.net/resources/r/?m=02&d=20171207&t=2&i=1212804995&w=1200&r=LYNXMPEDB60K7", "end": {"geometry": {"coordinates": [6.266981049224174, 46.073899963461784]}}, "title": "08-12-2017 : Syrian govt delegation to return to Geneva on Sunday for peace talks: SANA (Syria-Switzerland)", "geometry": {"coordinates": [38.69547569586061, 34.97344439438948]}, "relation": 0.2},
{"link": "https://www.reuters.com/article/us-china-india/china-criticizes-india-for-crashed-drone-near-border-idUSKBN1E10D6", "src": "https://s4.reutersmedia.net/resources_v2/images/rcom-default.png", "end": {"geometry": {"coordinates": [81.5794883744106, 18.579718073830136]}}, "title": "08-12-2017 : China criticises India over crashed drone on border (China-India)", "geometry": {"coordinates": [104.11507655694868, 37.72328337958745]}, "relation": -0.204},
{"link": "https://www.reuters.com/article/us-ukraine-crisis-tillerson/tillerson-russia-sanctions-will-stay-until-it-withdraws-from-ukraine-idUSKBN1E118C", "src": "https://s3.reutersmedia.net/resources/r/?m=02&d=20171207&t=2&i=1212826634&w=1200&r=LYNXMPEDB60QM", "end": {"geometry": {"coordinates": [102.9488058888634, 58.27269949575516]}}, "title": "08-12-2017 : Ukraine - biggest obstacle to normal Russia ties, says Tillerson (Ukraine-Russia)", "geometry": {"coordinates": [30.87974107632185, 48.84033604733642]}, "relation": -0.2},
{"link": "https://www.reuters.com/article/us-usa-trump-israel-turkey/turkey-says-u-s-pulled-the-pin-on-bomb-with-jerusalem-decision-idUSKBN1E118S", "src": "https://s3.reutersmedia.net/resources/r/?m=02&d=20171207&t=2&i=1212857488&w=1200&r=LYNXMPEDB615L", "end": {"geometry": {"coordinates": [-94.36520509879456, 32.1654462176793]}}, "title": "08-12-2017 : Turkey says U.S. 'pulled the pin on bomb' with Jerusalem decision (Turkey-United States)", "geometry": {"coordinates": [34.84510211957798, 39.04694437675731]}, "relation": -0.198},
{"link": "https://www.reuters.com/article/us-lebanon-politics/lebanon-emerges-from-crisis-with-iran-on-top-but-risks-remain-idUSKBN1E11VV", "src": "https://s4.reutersmedia.net/resources/r/?m=02&d=20171207&t=2&i=1212881522&w=1200&r=LYNXMPEDB618T", "end": {"geometry": {"coordinates": [55.13500013827752, 32.39891909888959]}}, "title": "08-12-2017 : Lebanon emerges from crisis with Iran on top, but risks remain (Lebanon-Iran)", "geometry": {"coordinates": [36.16668973765814, 34.14914099909678]}, "relation": -0.313},
{"link": "https://www.reuters.com/article/us-moldova-russia/moldova-ruling-party-chief-says-framed-by-russia-in-bogus-cases-idUSKBN1E12QJ", "src": "https://s2.reutersmedia.net/resources/r/?m=02&d=20171207&t=2&i=1212916429&w=1200&r=LYNXMPEDB61QG", "end": {"geometry": {"coordinates": [104.53703420861619, 65.57075865834983]}}, "title": "08-12-2017 : Moldova ruling party chief says framed by Russia in bogus cases (Moldova-Russia)", "geometry": {"coordinates": [28.03927394734082, 47.30425074896007]}, "relation": 0.184},
{"link": "https://www.reuters.com/article/us-britain-iran-johnson/british-foreign-minister-to-visit-iran-lobby-for-jailed-aid-worker-idUSKBN1E20JN", "src": "https://s2.reutersmedia.net/resources/r/?m=02&d=20171208&t=2&i=1213018586&w=1200&r=LYNXMPEDB70CI", "end": {"geometry": {"coordinates": [56.26475241859696, 33.094359999045054]}}, "title": "09-12-2017 : British foreign minister to visit Iran, lobby for jailed aid worker (United Kingdom-Iran)", "geometry": {"coordinates": [-3.4413308478726776, 55.332263958548175]}, "relation": -0.196},
{"link": "https://www.reuters.com/article/us-russia-usa-missiles/russia-says-ready-for-talks-with-u-s-to-try-to-save-arms-pact-idUSKBN1E20QK", "src": "https://s2.reutersmedia.net/resources/r/?m=02&d=20171208&t=2&i=1213029537&w=1200&r=LYNXMPEDB70GE", "end": {"geometry": {"coordinates": [-93.6676186045598, 39.15004071595948]}}, "title": "09-12-2017 : Russia says ready for talks with U.S. to try to save arms pact (Russia-United States)", "geometry": {"coordinates": [103.90555448436106, 61.389547227969736]}, "relation": 0.289},
{"link": "https://www.reuters.com/article/us-china-silkroad-pakistan/china-warns-of-imminent-attacks-by-terrorists-in-pakistan-idUSKBN1E216N", "src": "https://s4.reutersmedia.net/resources/r/?m=02&d=20171208&t=2&i=1213058119&w=1200&r=LYNXMPEDB70P9", "end": {"geometry": {"coordinates": [68.66494681249745, 30.382898454679747]}}, "title": "09-12-2017 : China warns of imminent attacks by \"terrorists\" in Pakistan (China-Pakistan)", "geometry": {"coordinates": [108.7721620301092, 39.71715947856309]}, "relation": -0.323},
{"link": "https://www.reuters.com/article/us-netherlands-safrica-warcrimes/dutch-blood-timber-businessman-arrested-in-south-africa-idUSKBN1E21IV", "src": "https://s4.reutersmedia.net/resources_v2/images/rcom-default.png", "end": {"geometry": {"coordinates": [20.711892316484168, -30.20216218906714]}}, "title": "09-12-2017 : Dutch 'blood timber' businessman arrested in South Africa (Netherlands-South Africa)", "geometry": {"coordinates": [5.363059806558152, 51.986377887765435]}, "relation": -0.237},
{"link": "https://www.reuters.com/article/us-usa-trump-israel-dead/palestinian-killed-in-gaza-clashes-over-trumps-jerusalem-move-idUSKBN1E21UP", "src": "https://s4.reutersmedia.net/resources_v2/images/rcom-default.png", "end": {"geometry": {"coordinates": [33.89696182856279, 31.828671235318787]}}, "title": "09-12-2017 : Palestinian killed in Gaza clashes over Trump's Jerusalem move (Palestine-Gaza Strip)", "geometry": {"coordinates": [35.216132976923504, 31.92529736828454]}, "relation": -0.29},
{"link": "https://www.reuters.com/article/us-russia-northkorea/russia-says-ready-to-exert-influence-on-north-korea-ria-idUSKBN1DZ2OU", "src": "https://s2.reutersmedia.net/resources/r/?m=02&d=20171205&t=2&i=1212498679&w=1200&r=LYNXMPEDB41FI", "end": {"geometry": {"coordinates": [127.17020806475402, 40.566028246593554]}}, "title": "09-12-2017 : Russia says ready to exert influence on North Korea: Ifax (Russia-North Korea)", "geometry": {"coordinates": [103.7181302502281, 62.097106261974915]}, "relation": 0.172},
{"link": "https://www.reuters.com/article/us-france-usa-tillerson/jerusalems-final-status-to-be-decided-by-israelis-palestinians-tillerson-idUSKBN1E21RW", "src": "https://s4.reutersmedia.net/resources/r/?m=02&d=20171208&t=2&i=1213129076&w=1200&r=LYNXMPEDB715Y", "end": {"geometry": {"coordinates": [42.63374989591642, 28.97534264123525]}}, "title": "09-12-2017 : Tillerson calls on Saudis to be 'more thoughtful' in Middle East (Saudi Arabia-Middle East)", "geometry": {"coordinates": [45.8082207657441, 21.183318151945265]}, "relation": 0.171},
{"link": "https://www.reuters.com/article/us-usa-yemen-pentagon/u-s-military-says-airstrikes-kill-five-al-qaeda-militants-in-yemen-idUSKBN1E22CL", "src": "https://s4.reutersmedia.net/resources_v2/images/rcom-default.png", "end": {"geometry": {"coordinates": [48.13096293681963, 15.790225587562897]}}, "title": "09-12-2017 : U.S. military says airstrikes kill five al Qaeda militants in Yemen (United States-Yemen)", "geometry": {"coordinates": [-99.97012296618568, 40.40002046172996]}, "relation": -0.266},
{"link": "https://www.reuters.com/article/us-usa-trump-israel-abbas/palestinian-president-says-u-s-can-no-longer-broker-peace-idUSKBN1E22HT", "src": "https://s3.reutersmedia.net/resources/r/?m=02&d=20171208&t=2&i=1213155960&w=1200&r=LYNXMPEDB71NP", "end": {"geometry": {"coordinates": [-93.93225464835085, 40.770616012854305]}}, "title": "09-12-2017 : Palestinian president says U.S. can no longer broker peace (Palestine-United States)", "geometry": {"coordinates": [35.597332215497325, 32.411194598617264]}, "relation": 0.223},
{"link": "https://www.reuters.com/article/us-uber-rape-settlement/uber-agrees-to-settle-u-s-lawsuit-filed-by-india-rape-victim-idUSKBN1E300T", "src": "https://s3.reutersmedia.net/resources/r/?m=02&d=20171209&t=2&i=1213211751&w=1200&r=LYNXMPEDB800L", "end": {"geometry": {"coordinates": [82.12813192388936, 19.523002025048235]}}, "title": "09-12-2017 : Uber agrees to settle U.S. lawsuit filed by India rape victim (United States-India)", "geometry": {"coordinates": [-99.72223024311967, 41.017543296282376]}, "relation": -0.418},
{"link": "https://www.reuters.com/article/us-usa-trump-israel/israel-allows-jerusalem-mosque-access-despite-palestinian-day-of-rage-idUSKBN1E211I", "src": "https://s2.reutersmedia.net/resources/r/?m=02&d=20171208&t=2&i=1213128155&w=1200&r=LYNXMPEDB71FG", "end": {"geometry": {"coordinates": [34.81493837894274, 31.610601275973952]}}, "title": "10-12-2017 : Two dead in 'Day of Rage' over Jerusalem, Palestinian president defiant (Israel-Palestine)", "geometry": {"coordinates": [34.88562989920355, 31.519362316793938]}, "relation": -0.495},
{"link": "https://www.reuters.com/article/us-usa-trump-israel-egypt/egypts-coptic-church-rejects-meeting-with-pence-over-jerusalem-move-idUSKBN1E30FU", "src": "https://s3.reutersmedia.net/resources/r/?m=02&d=20171209&t=2&i=1213302062&w=1200&r=LYNXMPEDB80CP", "end": {"geometry": {"coordinates": [35.35739253496306, 31.765144866620677]}}, "title": "10-12-2017 : Egypt's Coptic Church rejects meeting with Pence over Jerusalem move (Egypt-Israel)", "geometry": {"coordinates": [30.015956926937772, 29.689940946346745]}, "relation": -0.225},
{"link": "https://www.reuters.com/article/us-mideast-crisis-lebanon-iraq/iraqi-shiite-militia-leader-visits-lebanese-israeli-border-idUSKBN1E30FL", "src": "https://s4.reutersmedia.net/resources/r/?m=02&d=20171209&t=2&i=1213324056&w=1200&r=LYNXMPEDB80G9", "end": {"geometry": {"coordinates": [44.0666444435868, 33.060240667501375]}}, "title": "10-12-2017 : Lebanon's Hariri denounces Iraqi Shi'ite paramilitary's visit to border (Lebanon-Iraq)", "geometry": {"coordinates": [35.52972047705842, 34.21500037860432]}, "relation": -0.225},
{"link": "https://www.reuters.com/article/us-usa-trump-israel-arabs/arabs-should-consider-economic-sanctions-on-u-s-over-jerusalem-lebanon-idUSKBN1E30R7", "src": "https://s2.reutersmedia.net/resources/r/?m=02&d=20171210&t=2&i=1213383524&w=1200&r=LYNXMPEDB80LH", "end": {"geometry": {"coordinates": [35.50471969091727, 31.414807560955033]}}, "title": "10-12-2017 : Arab states urge U.S. to abandon Jerusalem move (United States-Israel)", "geometry": {"coordinates": [-98.1025409169495, 32.46978910996541]}, "relation": -0.225},
{"link": "https://www.reuters.com/article/us-usa-trump-israel-arabs-meet/arab-states-urge-u-s-to-abandon-jerusalem-move-statement-idUSKBN1E400P", "src": "https://s3.reutersmedia.net/resources/r/?m=02&d=20171210&t=2&i=1213382341&w=1200&r=LYNXMPEDB900O", "end": {"geometry": {"coordinates": [35.516270479575866, 32.15716715523125]}}, "title": "10-12-2017 : Arab states urge U.S. to abandon Jerusalem move: statement (United States-Israel)", "geometry": {"coordinates": [-98.26881502871994, 35.90307590394257]}, "relation": -0.209},
{"link": "https://www.reuters.com/article/us-usa-trump-israel-lieberman/israeli-defence-minister-says-hopes-palestinian-protests-waning-idUSKBN1E403U", "src": "https://s4.reutersmedia.net/resources/r/?m=02&d=20171210&t=2&i=1213428513&w=1200&r=LYNXMPEDB903V", "end": {"geometry": {"coordinates": [35.06170835007256, 31.802114510958585]}}, "title": "11-12-2017 : Israel defence minister says hopes Palestinian protests waning (Israel-Palestine)", "geometry": {"coordinates": [34.83083589832709, 31.245754226749177]}, "relation": 0.321},
{"link": "https://www.reuters.com/article/us-mideast-crisis-iraq-aid/u-s-agency-to-help-iraq-recover-from-is-despite-trump-aid-cuts-idUSKBN1E40TS", "src": "https://s2.reutersmedia.net/resources/r/?m=02&d=20171210&t=2&i=1213514247&w=1200&r=LYNXMPEDB90R3", "end": {"geometry": {"coordinates": [43.84783489698856, 32.779268408164405]}}, "title": "11-12-2017 : U.S. agency to help Iraq recover from IS despite Trump aid cuts (United States-Iraq)", "geometry": {"coordinates": [-92.39379132786135, 34.185684553128475]}, "relation": 0.261},
{"link": "https://www.reuters.com/article/us-china-australia/chinas-top-paper-says-australian-media-reports-are-racist-idUSKBN1E5031", "src": "https://s3.reutersmedia.net/resources/r/?m=02&d=20171211&t=2&i=1213550545&w=1200&r=LYNXMPEDBA01N", "end": {"geometry": {"coordinates": [129.61152975207364, -24.86742936987492]}}, "title": "11-12-2017 : China's top paper says Australian media reports are racist (China-Australia)", "geometry": {"coordinates": [99.91910069860494, 37.116653541136785]}, "relation": -0.27},
{"link": "https://www.reuters.com/article/us-germany-security-china/german-intelligence-unmasks-alleged-covert-chinese-social-media-profiles-idUSKBN1E40CA", "src": "https://s4.reutersmedia.net/resources_v2/images/rcom-default.png", "end": {"geometry": {"coordinates": [108.04260204976501, 38.04108542149853]}}, "title": "12-12-2017 : German intelligence unmasks alleged covert Chinese social media profiles (Germany-China)", "geometry": {"coordinates": [10.47166764676573, 51.37544431927431]}, "relation": 0.237},
{"link": "https://www.reuters.com/article/us-venezuela-crisis-brazil/venezuelan-migrants-pose-humanitarian-problem-in-brazil-idUSKBN1E51KV", "src": "https://s4.reutersmedia.net/resources/r/?m=02&d=20171211&t=2&i=1213656681&w=1200&r=LYNXMPEDBA0WT", "end": {"geometry": {"coordinates": [-47.420304472510125, -16.510468730762668]}}, "title": "12-12-2017 : Venezuelan migrants pose humanitarian problem in Brazil (Venezuela-Brazil)", "geometry": {"coordinates": [-66.11304711701524, 6.620534332650437]}, "relation": -0.252},
{"link": "https://www.reuters.com/article/us-iran-politics-zarif/iran-foreign-minister-defends-missile-program-asks-european-support-idUSKBN1E51IO", "src": "https://s4.reutersmedia.net/resources_v2/images/rcom-default.png", "end": {"geometry": {"coordinates": [15.731897414654501, 54.98498805221831]}}, "title": "12-12-2017 : Iran foreign minister defends missile program, asks European support (Iran-Europe)", "geometry": {"coordinates": [55.10494710520214, 34.333478366677575]}, "relation": 0.213},
{"link": "https://www.reuters.com/article/us-mideast-crisis-syria-russia-putin/putin-on-visit-orders-russian-forces-to-start-pulling-out-of-syria-agencies-idUSKBN1E50X1", "src": "https://s4.reutersmedia.net/resources/r/?m=02&d=20171211&t=2&i=1213648052&w=1200&r=LYNXMPEDBA0T9", "end": {"geometry": {"coordinates": [106.24420751756844, 56.66422432072268]}}, "title": "12-12-2017 : Putin, in Syria, says mission accomplished, orders partial Russian pull-out (Argentina-Russia)", "geometry": {"coordinates": [-68.82806633040576, -46.68901176619961]}, "relation": 0.209},
{"link": "https://www.reuters.com/article/us-britain-iran-citizens/britain-urged-iran-to-release-detained-dual-nationals-johnson-idUSKBN1E528T", "src": "https://s4.reutersmedia.net/resources_v2/images/rcom-default.png", "end": {"geometry": {"coordinates": [52.230447619760625, 30.099276094693852]}}, "title": "12-12-2017 : Britain urged Iran to release detained dual nationals: Johnson (United Kingdom-Iran)", "geometry": {"coordinates": [-3.2045372089206947, 55.07187838536788]}, "relation": -0.197},
{"link": "https://www.reuters.com/article/us-mideast-crisis-iraq-turkey/turkish-air-strikes-kill-17-kurdish-militants-in-northern-iraq-army-idUSKBN1E51G1", "src": "https://s4.reutersmedia.net/resources_v2/images/rcom-default.png", "end": {"geometry": {"coordinates": [43.216251721166564, 33.54798352397324]}}, "title": "12-12-2017 : Turkish air strikes kill 29 Kurdish militants in northern Iraq: army (Turkey-Iraq)", "geometry": {"coordinates": [35.08432456339113, 39.13141028855249]}, "relation": -0.396},
{"link": "https://www.reuters.com/article/us-usa-trump-israel-iran/iran-defense-minister-trumps-jerusalem-move-will-hasten-israels-destruction-idUSKBN1E5172", "src": "https://s2.reutersmedia.net/resources/r/?m=02&d=20171211&t=2&i=1213709568&w=1200&r=LYNXMPEDBA1FC", "end": {"geometry": {"coordinates": [52.43248750688209, 34.81743225938249]}}, "title": "12-12-2017 : Trump's Jerusalem move will hasten Israel's destruction: Iran (Israel-Iran)", "geometry": {"coordinates": [35.10941450781128, 31.2389907015186]}, "relation": -0.291},
{"link": "https://www.reuters.com/article/us-australia-politics-china/prominent-australian-opposition-lawmaker-quits-over-claims-of-china-links-idUSKBN1E6015", "src": "https://s4.reutersmedia.net/resources_v2/images/rcom-default.png", "end": {"geometry": {"coordinates": [107.7649011749552, 32.107290593281206]}}, "title": "13-12-2017 : Prominent Australian opposition lawmaker quits over claims of China links (Australia-China)", "geometry": {"coordinates": [128.99639207693434, -26.249939202885223]}, "relation": 0.173},
{"link": "https://www.reuters.com/article/us-indonesia-prison-escape/u-s-citizen-on-the-run-after-busting-out-of-bali-prison-idUSKBN1E50LM", "src": "https://s4.reutersmedia.net/resources/r/?m=02&d=20171211&t=2&i=1213609325&w=1200&r=LYNXMPEDBA0BW", "end": {"geometry": {"coordinates": [115.21260278831086, -8.12777461470878]}}, "title": "13-12-2017 : U.S. citizen on the run after busting out of Bali prison (United States-Indonesia)", "geometry": {"coordinates": [-96.51628646497498, 35.41733400800759]}, "relation": -0.202},
{"link": "https://www.reuters.com/article/us-netherlands-iran-shooting/be-careful-murdered-iranian-activists-daughter-tells-european-exiles-idUSKBN1E61KX", "src": "https://s4.reutersmedia.net/resources_v2/images/rcom-default.png", "end": {"geometry": {"coordinates": [15.541302718376688, 54.97277460101743]}}, "title": "13-12-2017 : Be careful, murdered Iranian activist's daughter tells European exiles (Iran-Europe)", "geometry": {"coordinates": [54.389483525413056, 31.170679163734125]}, "relation": -0.293},
{"link": "https://www.reuters.com/article/us-israel-palestinians/two-palestinians-killed-in-israeli-attack-in-gaza-local-residents-idUSKBN1E61EP", "src": "https://s2.reutersmedia.net/resources/r/?m=02&d=20171212&t=2&i=1213870129&w=1200&r=LYNXMPEDBB0YB", "end": {"geometry": {"coordinates": [35.24812954282726, 30.799081131559845]}}, "title": "13-12-2017 : Two dead in Gaza blast, Israeli military denies it carried out an attack (Gaza Strip-Israel)", "geometry": {"coordinates": [34.225258996781484, 31.202843780823905]}, "relation": -0.44},
{"link": "https://www.reuters.com/article/us-cuba-usa/cuba-tells-u-s-suspension-of-visas-is-hurting-families-idUSKBN1E60D3", "src": "https://s3.reutersmedia.net/resources/r/?m=02&d=20171212&t=2&i=1213787796&w=1200&r=LYNXMPEDBB06O", "end": {"geometry": {"coordinates": [-99.19602888339683, 33.76753767144585]}}, "title": "13-12-2017 : Cuba tells U.S. suspension of visas is hurting families (Cuba-United States)", "geometry": {"coordinates": [-77.60230965028083, 21.892786066956905]}, "relation": -0.197},
{"link": "https://www.reuters.com/article/us-yemen-security-usa-aid/u-s-aid-chief-says-no-sign-yemen-port-blockade-easing-to-allow-aid-in-idUSKBN1E6327", "src": "https://s4.reutersmedia.net/resources_v2/images/rcom-default.png", "end": {"geometry": {"coordinates": [48.998142846979015, 15.970912069683468]}}, "title": "13-12-2017 : U.S. aid chief says no sign Yemen port blockade easing to allow aid in (United States-Yemen)", "geometry": {"coordinates": [-99.65764035777696, 40.24515078571406]}, "relation": 0.194},
{"link": "https://www.reuters.com/article/us-northkorea-missiles-china/china-says-it-welcomes-all-efforts-to-ease-tension-on-korean-peninsula-idUSKBN1E70P2", "src": "https://s4.reutersmedia.net/resources_v2/images/rcom-default.png", "end": {"geometry": {"coordinates": [128.0703111804179, 37.33144012189231]}}, "title": "14-12-2017 : China says it welcomes all efforts to ease tension on Korean peninsula (China-Korea)", "geometry": {"coordinates": [105.3301547813292, 38.81636983848101]}, "relation": 0.281},
{"link": "https://www.reuters.com/article/us-poland-politics-tvn/u-s-criticizes-poland-for-fining-u-s-owned-broadcaster-tvn-idUSKBN1E70SY", "src": "https://s4.reutersmedia.net/resources_v2/images/rcom-default.png", "end": {"geometry": {"coordinates": [19.538997777865998, 51.89581740438239]}}, "title": "14-12-2017 : U.S. criticizes Poland for fining U.S.-owned broadcaster TVN (United States-Poland)", "geometry": {"coordinates": [-93.5757599664793, 42.05819251163654]}, "relation": -0.194},
{"link": "https://www.reuters.com/article/us-usa-trump-israel-abbas/palestines-abbas-says-u-s-jerusalem-decision-greatest-crime-idUSKBN1E70ZB", "src": "https://s3.reutersmedia.net/resources/r/?m=02&d=20171213&t=2&i=1214092193&w=1200&r=LYNXMPEDBC0T5", "end": {"geometry": {"coordinates": [-94.54947792923426, 41.894189906762634]}}, "title": "14-12-2017 : Palestine's Abbas says U.S. Jerusalem decision 'greatest crime' (Palestine-United States)", "geometry": {"coordinates": [35.57435801318488, 31.662124028513244]}, "relation": 0.251},
{"link": "https://www.reuters.com/article/us-china-taiwan/china-warns-taiwan-not-to-rely-on-foreigners-after-attack-threat-idUSKBN1E7091", "src": "https://s4.reutersmedia.net/resources_v2/images/rcom-default.png", "end": {"geometry": {"coordinates": [121.27583389405123, 23.607025443966748]}}, "title": "14-12-2017 : China warns Taiwan not to rely on foreigners after attack threat (China-Taiwan)", "geometry": {"coordinates": [103.82265133229895, 37.64139605425133]}, "relation": -0.441},
{"link": "https://www.reuters.com/article/us-usa-trump-israel-jordan/jordans-king-rejects-change-in-status-of-jerusalem-its-holy-sites-idUSKBN1E715J", "src": "https://s4.reutersmedia.net/resources_v2/images/rcom-default.png", "end": {"geometry": {"coordinates": [35.307612893160936, 31.67405971027236]}}, "title": "14-12-2017 : Jordan's King rejects change in status of Jerusalem, its holy sites (Jordan-Israel)", "geometry": {"coordinates": [36.57815055856317, 30.49499004808618]}, "relation": -0.211},
{"link": "https://www.reuters.com/article/us-sweden-germany-trial/swedish-laser-man-killer-stands-trial-for-murder-in-germany-idUSKBN1E71MN", "src": "https://s2.reutersmedia.net/resources/r/?m=02&d=20171213&t=2&i=1214134626&w=1200&r=LYNXMPEDBC15G", "end": {"geometry": {"coordinates": [10.446135107364936, 51.47615277987026]}}, "title": "14-12-2017 : Swedish 'laser man' killer stands trial for murder in Germany (Sweden-Germany)", "geometry": {"coordinates": [18.260673962782217, 60.605952814944054]}, "relation": -0.474},
{"link": "https://www.reuters.com/article/us-northkorea-missiles-usa-tillerson/north-korea-shows-no-sign-it-is-serious-about-talking-u-s-official-idUSKBN1E72X4", "src": "https://s4.reutersmedia.net/resources_v2/images/rcom-default.png", "end": {"geometry": {"coordinates": [-94.55322793343915, 40.48729105124502]}}, "title": "14-12-2017 : North Korea shows no sign it is serious about talking: U.S. official (North Korea-United States)", "geometry": {"coordinates": [127.68011972888081, 40.223221955496726]}, "relation": -0.2},
{"link": "https://www.reuters.com/article/us-russia-saudi-nuclear/russia-saudi-arabia-sign-atomic-energy-cooperation-roadmap-idUSKBN1E818H", "src": "https://s4.reutersmedia.net/resources_v2/images/rcom-default.png", "end": {"geometry": {"coordinates": [46.81291747175714, 21.152994465888778]}}, "title": "15-12-2017 : Russia, Saudi Arabia sign atomic energy cooperation roadmap (Russia-Saudi Arabia)", "geometry": {"coordinates": [109.48107818215901, 60.98494233054113]}, "relation": 0.174},
{"link": "https://www.reuters.com/article/us-usa-trump-israel-islamicstate/islamic-state-threatens-u-s-attacks-over-jerusalem-decision-statement-idUSKBN1E81BK", "src": "https://s4.reutersmedia.net/resources_v2/images/rcom-default.png", "end": {"geometry": {"coordinates": [35.22673722343539, 32.21920303311194]}}, "title": "15-12-2017 : Islamic State threatens U.S. attacks over Jerusalem decision: statement (United States-Israel)", "geometry": {"coordinates": [-99.43368045662218, 36.77468404920985]}, "relation": -0.355},
{"link": "https://www.reuters.com/article/us-northkorea-missiles-china/chinas-xi-says-war-cannot-be-allowed-on-korean-peninsula-idUSKBN1E81EQ", "src": "https://s3.reutersmedia.net/resources/r/?m=02&d=20171214&t=2&i=1214391025&w=1200&r=LYNXMPEDBD0U6", "end": {"geometry": {"coordinates": [128.1781027809936, 37.77050020344649]}}, "title": "15-12-2017 : China's Xi says war cannot be allowed on Korean peninsula (China-Korea)", "geometry": {"coordinates": [108.98416025268297, 35.17858879210348]}, "relation": -0.262},
{"link": "https://www.reuters.com/article/us-russia-putin-trump/russias-putin-laments-spymania-gripping-washington-idUSKBN1E819N", "src": "https://s4.reutersmedia.net/resources_v2/images/rcom-default.png", "end": {"geometry": {"coordinates": [-120.32465688075, 48.46511779898101]}}, "title": "15-12-2017 : Russia's Putin laments 'spymania' gripping Washington (Russia-United States)", "geometry": {"coordinates": [103.17732166444472, 64.14151859251919]}, "relation": -0.238},
{"link": "https://www.reuters.com/article/us-russia-putin-northkorea/putin-warns-against-u-s-strike-on-north-korea-idUSKBN1E81DM", "src": "https://s4.reutersmedia.net/resources_v2/images/rcom-default.png", "end": {"geometry": {"coordinates": [127.85204792477217, 40.54473442416324]}}, "title": "15-12-2017 : Putin warns against U.S. strike on North Korea (United States-North Korea)", "geometry": {"coordinates": [-99.5172637807286, 37.13914217085434]}, "relation": -0.225},
{"link": "https://www.reuters.com/article/us-myanmar-journalists-britain/britain-expresses-grave-concerns-over-arrest-of-reuters-journalists-in-myanmar-idUSKBN1E828B", "src": "https://s4.reutersmedia.net/resources/r/?m=02&d=20171214&t=2&i=1214445451&w=1200&r=LYNXMPEDBD1AX", "end": {"geometry": {"coordinates": [95.5776155915111, 21.503641939957824]}}, "title": "15-12-2017 : Britain expresses grave concerns over arrest of Reuters journalists in Myanmar (United Kingdom-Myanmar (Burma))", "geometry": {"coordinates": [-3.4498356951605436, 55.07127137755407]}, "relation": -0.278},
{"link": "https://www.reuters.com/article/us-russia-putin-poland/putin-poland-should-turn-page-on-plane-crash-that-killed-president-idUSKBN1E81HX", "src": "https://s4.reutersmedia.net/resources_v2/images/rcom-default.png", "end": {"geometry": {"coordinates": [34.36702055053049, 59.29256130959427]}}, "title": "15-12-2017 : Putin says Poland should \"grow up\" and stop blaming Moscow for air crash (Poland-Russia)", "geometry": {"coordinates": [19.575661264738187, 52.268312395205584]}, "relation": -0.403},
{"link": "https://www.reuters.com/article/us-mideast-crisis-syria-jets/u-s-jets-fire-flares-to-warn-russian-jets-in-syria-idUSKBN1E82V3", "src": "https://s4.reutersmedia.net/resources_v2/images/rcom-default.png", "end": {"geometry": {"coordinates": [107.44211913185023, 66.03561419472648]}}, "title": "15-12-2017 : U.S. jets fire flares to warn Russian jets in Syria (United States-Russia)", "geometry": {"coordinates": [-96.8523938267168, 40.726039078698335]}, "relation": -0.257},
{"link": "https://www.reuters.com/article/us-eu-poland-commission/eu-commission-to-move-against-poland-next-week-over-rule-of-law-polish-pm-idUSKBN1E81ZL", "src": "https://s1.reutersmedia.net/resources/r/?m=02&d=20171214&t=2&i=1214426347&w=1200&r=LYNXMPEDBD171", "end": {"geometry": {"coordinates": [3.8609942633724605, 50.79176772205609]}}, "title": "15-12-2017 : Poland's new PM sees punishment from Brussels coming (Poland-Belgium)", "geometry": {"coordinates": [18.929360484589008, 52.40355040409932]}, "relation": -0.262},
{"link": "https://www.reuters.com/article/us-northkorea-missiles/china-says-war-must-not-be-allowed-on-korean-peninsula-idUSKBN1E81R0", "src": "https://s4.reutersmedia.net/resources/r/?m=02&d=20171214&t=2&i=1214412464&w=1200&r=LYNXMPEDBD12W", "end": {"geometry": {"coordinates": [127.92237800088085, 37.600338901659754]}}, "title": "15-12-2017 : China says war must not be allowed on Korean peninsula (China-Korea)", "geometry": {"coordinates": [103.36569616294013, 37.08620373718858]}, "relation": -0.262},
{"link": "https://www.reuters.com/article/us-denmark-murder-bitcoin/italian-woman-jailed-in-denmark-for-ordering-murder-online-in-bitcoin-idUSKBN1E91SB", "src": "https://s4.reutersmedia.net/resources_v2/images/rcom-default.png", "end": {"geometry": {"coordinates": [9.26315251451194, 55.839812931055675]}}, "title": "16-12-2017 : Italian woman jailed in Denmark for ordering murder online in bitcoin (Italy-Denmark)", "geometry": {"coordinates": [12.7085143651044, 41.45338350734363]}, "relation": -0.418},
{"link": "https://www.reuters.com/article/us-europe-attacks-belgium-court/belgian-trial-of-paris-attacker-abdeslam-postponed-court-idUSKBN1E91W6", "src": "https://s4.reutersmedia.net/resources_v2/images/rcom-default.png", "end": {"geometry": {"coordinates": [2.073003561407031, 49.08469935030862]}}, "title": "16-12-2017 : Belgian trial of Paris attacker Abdeslam postponed: court (Belgium-France)", "geometry": {"coordinates": [4.414073163894767, 50.44169085454372]}, "relation": -0.407},
{"link": "https://www.reuters.com/article/us-northkorea-missiles-japan/japan-says-n-korea-not-interested-in-meaningful-talks-idUSKBN1E921J", "src": "https://s2.reutersmedia.net/resources/r/?m=02&d=20171215&t=2&i=1214747013&w=1200&r=LYNXMPEDBE1AG", "end": {"geometry": {"coordinates": [127.79762698810515, 40.56291357132653]}}, "title": "16-12-2017 : Japan says North Korea not interested in meaningful talks (Japan-North Korea)", "geometry": {"coordinates": [138.65519559509096, 36.45356103799022]}, "relation": -0.297},
{"link": "https://www.reuters.com/article/us-warcrimes-ethiopia/dutch-court-sentences-ex-ethiopian-strongman-mengistu-to-life-for-war-crimes-idUSKBN1E91UO", "src": "https://s4.reutersmedia.net/resources_v2/images/rcom-default.png", "end": {"geometry": {"coordinates": [5.078127402812735, 52.0581947132378]}}, "title": "16-12-2017 : Ethiopian ex-official gets Dutch life sentence for war crimes (Ethiopia-Netherlands)", "geometry": {"coordinates": [40.708288469820914, 9.127695614400357]}, "relation": -0.275},
{"link": "https://www.reuters.com/article/us-israel-iran-blogger/israel-questions-iranian-blogger-after-giving-her-asylum-idUSKBN1E91I9", "src": "https://s4.reutersmedia.net/resources_v2/images/rcom-default.png", "end": {"geometry": {"coordinates": [53.24924500231549, 30.96329394330155]}}, "title": "16-12-2017 : Israel questions Iranian blogger after giving her asylum (Israel-Iran)", "geometry": {"coordinates": [35.288353224280705, 31.148189673364087]}, "relation": 0.211},
{"link": "https://www.reuters.com/article/us-india-religion/indian-police-arrest-christian-priest-after-complaint-by-hindu-group-idUSKBN1EA06V", "src": "https://s4.reutersmedia.net/resources_v2/images/rcom-default.png", "end": {"geometry": {"coordinates": [-88.01826767475934, 39.017935607353415]}}, "title": "17-12-2017 : Indian police arrest Christian priest after complaint by Hindu group (India-United States)", "geometry": {"coordinates": [83.4069884613795, 15.927353003836298]}, "relation": -0.295},
{"link": "https://www.reuters.com/article/us-italy-cybercrime/u-s-says-did-everything-possible-to-help-italy-cyber-investigation-idUSKBN1EA08Z", "src": "https://s4.reutersmedia.net/resources_v2/images/rcom-default.png", "end": {"geometry": {"coordinates": [12.807593948765843, 41.66288921875268]}}, "title": "17-12-2017 : U.S. says did everything possible to help Italy cyber investigation (United States-Italy)", "geometry": {"coordinates": [-91.99131659385762, 42.01793746225353]}, "relation": 0.184},
{"link": "https://www.reuters.com/article/us-europe-migrants-libya/libyan-coast-guard-rescues-more-than-250-migrants-trying-to-reach-italy-idUSKBN1EA0EQ", "src": "https://s2.reutersmedia.net/resources/r/?m=02&d=20171216&t=2&i=1214950027&w=1200&r=LYNXMPEDBF0AF", "end": {"geometry": {"coordinates": [12.664013963892446, 42.24109216967603]}}, "title": "17-12-2017 : Libyan coast guard rescues more than 250 migrants trying to reach Italy (Libya-Italy)", "geometry": {"coordinates": [17.086932381413718, 26.222218906157067]}, "relation": 0.221},
{"link": "https://www.reuters.com/article/us-saudi-corruption-jordan-masri/palestinian-billionaire-masri-detained-in-saudi-arabia-sources-idUSKBN1EA09M", "src": "https://s4.reutersmedia.net/resources_v2/images/rcom-default.png", "end": {"geometry": {"coordinates": [47.29527326862, 26.13667231738974]}}, "title": "17-12-2017 : Palestinian billionaire Masri detained in Saudi Arabia: sources (Palestine-Saudi Arabia)", "geometry": {"coordinates": [35.46259993455076, 32.19155528036249]}, "relation": -0.213},
{"link": "https://www.reuters.com/article/us-northkorea-missiles-australia/australia-arrests-man-accused-of-trying-to-sell-missile-parts-for-north-korea-idUSKBN1EB01U", "src": "https://s4.reutersmedia.net/resources_v2/images/rcom-default.png", "end": {"geometry": {"coordinates": [127.0132829966506, 40.667833848118015]}}, "title": "18-12-2017 : Australia arrests man accused of trying to sell missile parts for North Korea (Australia-North Korea)", "geometry": {"coordinates": [131.74867373036932, -23.21086887423821]}, "relation": -0.267},
{"link": "https://www.reuters.com/article/us-gabon-attack/two-danish-journalists-wounded-in-islamist-knife-attack-in-gabon-idUSKBN1EB0B2", "src": "https://s4.reutersmedia.net/resources_v2/images/rcom-default.png", "end": {"geometry": {"coordinates": [11.521272880395372, -1.0852021638508202]}}, "title": "18-12-2017 : Two Danish journalists wounded in Islamist knife attack in Gabon (Denmark-Gabon)", "geometry": {"coordinates": [9.414683041764961, 55.89861196211076]}, "relation": -0.22},
{"link": "https://www.reuters.com/article/us-saudi-corruption-jordan-masri/palestinian-billionaire-masri-released-by-saudis-to-leave-country-soon-sources-close-to-family-say-idUSKBN1EB06S", "src": "https://s4.reutersmedia.net/resources/r/?m=02&d=20171217&t=2&i=1215139091&w=1200&r=LYNXMPEDBG0GR", "end": {"geometry": {"coordinates": [47.769240246873096, 25.111717465435728]}}, "title": "18-12-2017 : Palestinian billionaire Masri released by Saudis; says they 'gave him all respect' (Palestine-Saudi Arabia)", "geometry": {"coordinates": [34.75010329835051, 31.688569227365925]}, "relation": 0.181},
{"link": "https://www.reuters.com/article/us-russia-usa-intelligence-whitehouse/u-s-tip-off-helped-russia-thwart-major-terrorist-plot-white-house-idUSKBN1EB0SP", "src": "https://s1.reutersmedia.net/resources/r/?m=02&d=20171217&t=2&i=1215210578&w=1200&r=LYNXMPEDBG0RA", "end": {"geometry": {"coordinates": [109.32407809105264, 64.74050801321019]}}, "title": "18-12-2017 : U.S. tip-off helped Russia thwart 'major' terrorist plot: White House (United States-Russia)", "geometry": {"coordinates": [-93.19656568491453, 39.489428112512144]}, "relation": -0.281},
{"link": "https://www.reuters.com/article/us-china-silkroad-pakistan-insight/hoping-to-extend-maritime-reach-china-lavishes-aid-on-pakistan-town-idUSKBN1EB00J", "src": "https://s3.reutersmedia.net/resources/r/?m=02&d=20171217&t=2&i=1215050754&w=1200&r=LYNXMPEDBG01P", "end": {"geometry": {"coordinates": [72.14246455169051, 30.093724142181497]}}, "title": "18-12-2017 : Hoping to extend maritime reach, China lavishes aid on Pakistan town (China-Pakistan)", "geometry": {"coordinates": [108.97735295659717, 31.68786384534152]}, "relation": 0.359},
{"link": "https://www.reuters.com/article/us-mideast-crisis-iraq-kurds-germany/germany-ties-iraq-aid-to-peaceful-resolution-of-conflict-with-kurds-idUSKBN1EC0XD", "src": "https://s3.reutersmedia.net/resources/r/?m=02&d=20171218&t=2&i=1215332982&w=1200&r=LYNXMPEDBH0N5", "end": {"geometry": {"coordinates": [43.59338970589798, 32.91436627678514]}}, "title": "19-12-2017 : Germany ties Iraq aid to peaceful resolution of conflict with Kurds (Germany-Iraq)", "geometry": {"coordinates": [10.502977316083504, 50.77972196159934]}, "relation": 0.194},
{"link": "https://www.reuters.com/article/us-europe-attacks-trial/belgian-trial-of-paris-attack-suspect-postponed-to-february-5-idUSKBN1EC0R5", "src": "https://s1.reutersmedia.net/resources/r/?m=02&d=20171218&t=2&i=1215321896&w=1200&r=LYNXMPEDBH0K1", "end": {"geometry": {"coordinates": [1.896093547464469, 49.14051874752942]}}, "title": "19-12-2017 : Belgian trial of Paris attack suspect postponed to Feb. 5 (Belgium-France)", "geometry": {"coordinates": [4.349712712225293, 50.704045411333524]}, "relation": -0.47},
{"link": "https://www.reuters.com/article/us-lebanon-britain/lebanon-detains-suspect-in-murder-of-british-embassy-worker-source-idUSKBN1EC0UI", "src": "https://s2.reutersmedia.net/resources/r/?m=02&d=20171218&t=2&i=1215375892&w=1200&r=LYNXMPEDBH10G", "end": {"geometry": {"coordinates": [-3.922415648702132, 55.63037506763846]}}, "title": "19-12-2017 : Lebanon detains Uber driver suspected of murdering British embassy worker: security official (Lebanon-United Kingdom)", "geometry": {"coordinates": [35.719123937703976, 34.17066980419777]}, "relation": -0.31},
{"link": "https://www.reuters.com/article/us-israel-palestinians/israel-strikes-hamas-targets-in-gaza-after-palestinian-rocket-attacks-idUSKBN1EC0RZ", "src": "https://s4.reutersmedia.net/resources_v2/images/rcom-default.png", "end": {"geometry": {"coordinates": [35.14416041104102, 32.217930134510944]}}, "title": "19-12-2017 : Israel strikes Hamas targets in Gaza after Palestinian rocket attacks (Israel-Palestine)", "geometry": {"coordinates": [35.0507314473672, 30.83489996709189]}, "relation": -0.351},
{"link": "https://www.reuters.com/article/us-moldova-russia-diplomacy/moldova-recalls-ambassador-from-moscow-for-consultations-idUSKBN1EC1ZR", "src": "https://s3.reutersmedia.net/resources/r/?m=02&d=20171218&t=2&i=1215406432&w=1200&r=LYNXMPEDBH175", "end": {"geometry": {"coordinates": [32.700014343594596, 52.186429344073986]}}, "title": "19-12-2017 : Moldova recalls ambassador from Moscow as dispute escalates (Moldova-Russia)", "geometry": {"coordinates": [28.092260787907367, 47.313763179472986]}, "relation": -0.231},
{"link": "https://www.reuters.com/article/us-germany-defence/german-defense-minister-says-troop-withdrawal-from-afghanistan-too-rapid-idUSKBN1EC2FK", "src": "https://s4.reutersmedia.net/resources/r/?m=02&d=20171218&t=2&i=1215446430&w=1200&r=LYNXMPEDBH1HV", "end": {"geometry": {"coordinates": [64.88435973076972, 36.37194642422555]}}, "title": "19-12-2017 : German defense minister says troop withdrawal from Afghanistan too rapid (Germany-Afghanistan)", "geometry": {"coordinates": [10.23673259286251, 51.00853202124052]}, "relation": 0.206},
{"link": "https://www.reuters.com/article/us-britain-security-us-mildenhall/british-police-arrest-man-trying-to-force-entry-into-u-s-military-base-idUSKBN1EC1UE", "src": "https://s4.reutersmedia.net/resources/r/?m=02&d=20171218&t=2&i=1215420032&w=1200&r=LYNXMPEDBH1AX", "end": {"geometry": {"coordinates": [-3.572314953087144, 55.0450871864946]}}, "title": "19-12-2017 : Shots fired by U.S. military personnel to stop man forcing entry onto British base (United States-United Kingdom)", "geometry": {"coordinates": [-99.4484128722227, 36.68157632308701]}, "relation": -0.266},
{"link": "https://www.reuters.com/article/us-turkey-security-germany/turkey-has-released-german-journalist-tolu-germany-idUSKBN1EC1A3", "src": "https://s1.reutersmedia.net/resources/r/?m=02&d=20171218&t=2&i=1215459082&w=1200&r=LYNXMPEDBH1KA", "end": {"geometry": {"coordinates": [10.22901112896042, 50.92819083321682]}}, "title": "19-12-2017 : Turkey frees German journalist Tolu but she cannot leave country:  Berlin government (Turkey-Germany)", "geometry": {"coordinates": [35.597276079743295, 38.67387097753292]}, "relation": 0.19},
{"link": "https://www.reuters.com/article/us-northkorea-missiles/japan-south-korea-urge-china-to-do-more-to-pressure-north-korea-idUSKBN1ED0M0", "src": "https://s2.reutersmedia.net/resources/r/?m=02&d=20171219&t=2&i=1215566510&w=1200&r=LYNXMPEDBI0DE", "end": {"geometry": {"coordinates": [127.2513939665669, 40.53733799403266]}}, "title": "20-12-2017 : U.S. seeks ship ban over North Korea violations, Moon postponing drills (United States-North Korea)", "geometry": {"coordinates": [-99.45492840591368, 39.462373944684245]}, "relation": -0.415},
{"link": "https://www.reuters.com/article/us-slovenia-economy-tourism/melanias-birth-country-slovenia-sees-strong-tourism-growth-idUSKBN1ED1OY", "src": "https://s2.reutersmedia.net/resources/r/?m=02&d=20171219&t=2&i=1215640478&w=1200&r=LYNXMPEDBI0ZH", "end": {"geometry": {"coordinates": [14.866197437791522, 46.52446669107036]}}, "title": "20-12-2017 : Melania's birth country Slovenia sees strong tourism growth (Chile-Slovenia)", "geometry": {"coordinates": [-71.03763958003626, -33.941927901731894]}, "relation": 0.424},
{"link": "https://www.reuters.com/article/us-croatia-slovenia-border/croatia-and-slovenia-fail-to-move-forward-in-talks-on-border-dispute-idUSKBN1ED1YB", "src": "https://s4.reutersmedia.net/resources_v2/images/rcom-default.png", "end": {"geometry": {"coordinates": [15.054204527656644, 45.84304551695665]}}, "title": "20-12-2017 : Croatia and Slovenia fail to move forward in talks on border dispute (Croatia-Slovenia)", "geometry": {"coordinates": [14.73564182607767, 45.1695767148191]}, "relation": -0.341},
{"link": "https://www.reuters.com/article/us-saudi-houthi-germany/germany-condemns-houthis-firing-missile-at-saudi-arabia-idUSKBN1ED245", "src": "https://s4.reutersmedia.net/resources_v2/images/rcom-default.png", "end": {"geometry": {"coordinates": [46.06125873743295, 21.92054164683322]}}, "title": "20-12-2017 : Germany condemns Houthi's firing missile at Saudi Arabia (Germany-Saudi Arabia)", "geometry": {"coordinates": [10.325921438727734, 51.228293231681256]}, "relation": -0.388},
{"link": "https://www.reuters.com/article/us-honduras-election-mexico/mexico-to-recognize-honduran-president-winner-of-disputed-election-sources-idUSKBN1EE06D", "src": "https://s4.reutersmedia.net/resources/r/?m=02&d=20171220&t=2&i=1215783919&w=1200&r=LYNXMPEDBJ028", "end": {"geometry": {"coordinates": [-86.48911867344998, 15.616425663604051]}}, "title": "20-12-2017 : Mexico to recognize Honduran president winner of disputed election: sources (Mexico-Honduras)", "geometry": {"coordinates": [-100.85026431384277, 25.351840743492644]}, "relation": 0.235},
{"link": "https://www.reuters.com/article/us-honduras-election-mexico/mexico-recognizes-honduran-president-as-winner-of-disputed-election-idUSKBN1EE0DL", "src": "https://s4.reutersmedia.net/resources/r/?m=02&d=20171220&t=2&i=1215811596&w=1200&r=LYNXMPEDBJ06Z", "end": {"geometry": {"coordinates": [-86.66495341771478, 15.172488604501376]}}, "title": "20-12-2017 : Mexico recognizes Honduran president as winner of disputed election (Mexico-Honduras)", "geometry": {"coordinates": [-100.95262599971917, 20.763147315104412]}, "relation": 0.25},
{"link": "https://www.reuters.com/article/us-thailand-aviation/thailand-seeks-air-safety-rating-upgrade-by-u-s-aviation-body-idUSKBN1EE0HE", "src": "https://s2.reutersmedia.net/resources/r/?m=02&d=20171220&t=2&i=1215824351&w=1200&r=LYNXMPEDBJ0AD", "end": {"geometry": {"coordinates": [-96.33207023191453, 40.32723861947878]}}, "title": "21-12-2017 : Thailand seeks air safety rating upgrade by U.S. aviation body (Thailand-United States)", "geometry": {"coordinates": [100.7538804039894, 15.867571265208252]}, "relation": 0.189},
{"link": "https://www.reuters.com/article/us-china-taiwan/beijing-angered-as-taiwan-probes-tiny-pro-china-opposition-party-idUSKBN1EE09H", "src": "https://s4.reutersmedia.net/resources_v2/images/rcom-default.png", "end": {"geometry": {"coordinates": [120.80019230466904, 23.30122791514746]}}, "title": "21-12-2017 : Beijing condemns Taiwan probe into tiny pro-China opposition party (China-Taiwan)", "geometry": {"coordinates": [113.71285273914022, 38.77668138350225]}, "relation": -0.22},
{"link": "https://www.reuters.com/article/us-europe-migration-serbia/serbian-croatian-police-detain-17-for-smuggling-migrants-to-eu-idUSKBN1EE1DW", "src": "https://s4.reutersmedia.net/resources_v2/images/rcom-default.png", "end": {"geometry": {"coordinates": [15.46971578690024, 45.305744187379005]}}, "title": "21-12-2017 : Serbian, Croatian police detain 17 for smuggling migrants to EU (Serbia-Croatia)", "geometry": {"coordinates": [20.633462223449243, 43.97844499821041]}, "relation": -0.371},
{"link": "https://www.reuters.com/article/us-kosovo-extremists/two-kosovo-men-plea-guilty-of-plotting-to-attack-israeli-soccer-team-idUSKBN1EE1SV", "src": "https://s4.reutersmedia.net/resources_v2/images/rcom-default.png", "end": {"geometry": {"coordinates": [34.75517273007719, 31.01274071284177]}}, "title": "21-12-2017 : Two Kosovo men plea guilty of plotting to attack Israeli soccer team (Kosovo-Israel)", "geometry": {"coordinates": [20.454142486316492, 42.78462360473124]}, "relation": -0.33},
{"link": "https://www.reuters.com/article/us-russia-norway-security/russia-detains-norwegian-citizen-over-suspected-spying-ria-idUSKBN1ED0X2", "src": "https://s4.reutersmedia.net/resources_v2/images/rcom-default.png", "end": {"geometry": {"coordinates": [8.44458061097667, 60.21526447616439]}}, "title": "21-12-2017 : Russia detains Norwegian citizen over suspected spying (Russia-Norway)", "geometry": {"coordinates": [107.36493101982504, 63.042936790929105]}, "relation": -0.192},
{"link": "https://www.reuters.com/article/us-ukraine-crisis-conflict-jccc/ukraine-allies-fear-escalation-after-russia-exits-ceasefire-group-idUSKBN1EE1X2", "src": "https://s2.reutersmedia.net/resources/r/?m=02&d=20171220&t=2&i=1215944292&w=1200&r=LYNXMPEDBJ1BC", "end": {"geometry": {"coordinates": [106.11572117136377, 59.48198971880376]}}, "title": "21-12-2017 : Ukraine, allies fear escalation after Russia exits ceasefire group (Ukraine-Russia)", "geometry": {"coordinates": [30.67409688244969, 48.238506764435556]}, "relation": -0.242},
{"link": "https://www.reuters.com/article/us-myanmar-rohingya-bangladesh-turkey/turkish-pm-calls-rohingya-killings-in-myanmar-genocide-idUSKBN1EE1RL", "src": "https://s3.reutersmedia.net/resources/r/?m=02&d=20171220&t=2&i=1215928323&w=1200&r=LYNXMPEDBJ16N", "end": {"geometry": {"coordinates": [96.18071821601399, 21.69797832633047]}}, "title": "21-12-2017 : Turkish PM calls Rohingya killings in Myanmar 'genocide' (Turkey-Myanmar (Burma))", "geometry": {"coordinates": [35.68450531815013, 38.57427479976299]}, "relation": -0.31},
{"link": "https://www.reuters.com/article/us-northkorea-missiles-china-tourism/exclusive-chinas-border-city-with-north-korea-eases-tourism-curbs-sources-idUSKBN1EE113", "src": "https://s2.reutersmedia.net/resources/r/?m=02&d=20171220&t=2&i=1215868436&w=1200&r=LYNXMPEDBJ0RC", "end": {"geometry": {"coordinates": [127.05993023773206, 40.56923979697154]}}, "title": "22-12-2017 : Exclusive: China's border city with North Korea eases tourism curbs - sources (China-North Korea)", "geometry": {"coordinates": [102.46206108184266, 38.509153357781585]}, "relation": 0.241},
{"link": "https://www.reuters.com/article/us-usa-trump-nationalsecurity-china/u-s-creating-sensational-hype-over-chinas-military-modernization-ministry-idUSKBN1EF0O3", "src": "https://s2.reutersmedia.net/resources/r/?m=02&d=20171221&t=2&i=1216122316&w=1200&r=LYNXMPEDBK0GG", "end": {"geometry": {"coordinates": [104.41653587693791, 31.60799396155678]}}, "title": "22-12-2017 : U.S. creating 'sensational hype' over China's military modernization: ministry (United States-China)", "geometry": {"coordinates": [-99.24600253580516, 34.64855550629265]}, "relation": 0.167},
{"link": "https://www.reuters.com/article/us-china-taiwan-crime/china-jails-13-taiwanese-for-telecoms-fraud-idUSKBN1EF078", "src": "https://s4.reutersmedia.net/resources_v2/images/rcom-default.png", "end": {"geometry": {"coordinates": [121.3233202957232, 23.966559850207094]}}, "title": "22-12-2017 : China jails 44 Taiwanese for fraud in case denounced by Taipei (China-Taiwan)", "geometry": {"coordinates": [104.91861008811527, 39.87283383327985]}, "relation": -0.241},
{"link": "https://www.reuters.com/article/us-usa-nuclear-russia/russia-spurns-u-s-allegations-it-violates-nuclear-arms-pact-idUSKBN1EF1HN", "src": "https://s4.reutersmedia.net/resources_v2/images/rcom-default.png", "end": {"geometry": {"coordinates": [-91.08714424585735, 35.38574733822585]}}, "title": "22-12-2017 : Russia spurns U.S. allegations it violates nuclear arms pact (Russia-United States)", "geometry": {"coordinates": [101.95375902455848, 61.697266743152944]}, "relation": -0.231},
{"link": "https://www.reuters.com/article/us-ukraine-crisis-russia-observers/russia-says-kievs-belligerence-forced-its-observers-to-quit-east-ukraine-idUSKBN1EF1IB", "src": "https://s4.reutersmedia.net/resources_v2/images/rcom-default.png", "end": {"geometry": {"coordinates": [31.59231907611335, 48.75327148081418]}}, "title": "22-12-2017 : Russia says Kiev's belligerence forced its observers to quit east Ukraine (Russia-Ukraine)", "geometry": {"coordinates": [102.3703616205804, 60.711331269078656]}, "relation": -0.2},
{"link": "https://www.reuters.com/article/us-libya-security-haftar/france-tells-eastern-libyan-military-commander-to-respect-u-n-talks-idUSKBN1EF237", "src": "https://s3.reutersmedia.net/resources/r/?m=02&d=20171221&t=2&i=1216231024&w=1200&r=LYNXMPEDBK1GL", "end": {"geometry": {"coordinates": [16.837995340980008, 26.426670120283664]}}, "title": "22-12-2017 : France tells eastern Libyan military commander to respect U.N. talks (France-Libya)", "geometry": {"coordinates": [1.978016107983322, 46.08787359546405]}, "relation": 0.22},
{"link": "https://www.reuters.com/article/us-yemen-security-port-usa/u-s-welcomes-decision-by-arab-coalition-to-keep-yemeni-port-open-idUSKBN1EF2JM", "src": "https://s4.reutersmedia.net/resources_v2/images/rcom-default.png", "end": {"geometry": {"coordinates": [48.19163536812004, 15.37896243040987]}}, "title": "22-12-2017 : U.S. welcomes decision by Saudi-led coalition to keep Yemen port open (United States-Yemen)", "geometry": {"coordinates": [-93.2423681265861, 37.96312202098389]}, "relation": 0.172},
{"link": "https://www.reuters.com/article/us-mideast-crisis-iraq-australia/australia-to-end-air-strikes-in-iraq-and-syria-bring-super-hornets-home-idUSKBN1EF324", "src": "https://s4.reutersmedia.net/resources_v2/images/rcom-default.png", "end": {"geometry": {"coordinates": [43.42074610675848, 32.88735137391822]}}, "title": "22-12-2017 : Australia to end air strikes in Iraq and Syria, bring Super Hornets home (Australia-Iraq)", "geometry": {"coordinates": [136.92094496762522, -24.03074823389719]}, "relation": 0.201},
{"link": "https://www.reuters.com/article/us-malaysia-politics-religion-analysis/worries-about-malaysias-arabisation-grow-as-saudi-ties-strengthen-idUSKBN1EF103", "src": "https://s2.reutersmedia.net/resources/r/?m=02&d=20171221&t=2&i=1216148998&w=1200&r=LYNXMPEDBK0SF", "end": {"geometry": {"coordinates": [42.87013765362112, 22.486867237456888]}}, "title": "22-12-2017 : Worries about Malaysia's 'Arabisation' grow as Saudi ties strengthen (Malaysia-Saudi Arabia)", "geometry": {"coordinates": [101.79194887098686, 3.775388060317641]}, "relation": -0.185},
{"link": "https://www.reuters.com/article/us-germany-turkey/germany-hopes-for-improvement-in-turkey-ties-after-new-prisoner-release-idUSKBN1EG0UN", "src": "https://s1.reutersmedia.net/resources/r/?m=02&d=20171222&t=2&i=1216431305&w=1200&r=LYNXMPEDBL0MA", "end": {"geometry": {"coordinates": [34.80765112782171, 39.012244592862565]}}, "title": "23-12-2017 : Germany hopes for improvement in Turkey ties after new prisoner release (Germany-Turkey)", "geometry": {"coordinates": [10.341310556074612, 51.18935699916218]}, "relation": 0.301},
{"link": "https://www.reuters.com/article/us-spain-politics-catalonia-germany/germany-calls-for-reconciliation-respect-for-constitution-in-spain-idUSKBN1EG13U", "src": "https://s4.reutersmedia.net/resources_v2/images/rcom-default.png", "end": {"geometry": {"coordinates": [-3.835221657506223, 40.493015456075895]}}, "title": "23-12-2017 : Germany calls for reconciliation, respect for constitution in Spain (Germany-Spain)", "geometry": {"coordinates": [10.705826595293816, 51.26227107056675]}, "relation": 0.237},
{"link": "https://www.reuters.com/article/us-denmark-security/danish-police-charge-syrian-man-with-attempted-terrorism-idUSKBN1EG1V1", "src": "https://s4.reutersmedia.net/resources_v2/images/rcom-default.png", "end": {"geometry": {"coordinates": [38.73910895840801, 34.987399621608525]}}, "title": "23-12-2017 : Danish police charge Syrian man with attempted terrorism (Denmark-Syria)", "geometry": {"coordinates": [9.750444330071698, 55.98379923889309]}, "relation": -0.338},
{"link": "https://www.reuters.com/article/us-ukraine-crisis-germany/ukraines-poroshenko-vows-to-work-for-quick-exchange-of-prisoners-germany-idUSKBN1EG25Z", "src": "https://s2.reutersmedia.net/resources/r/?m=02&d=20171222&t=2&i=1216556230&w=1200&r=LYNXMPEDBL1FF", "end": {"geometry": {"coordinates": [10.815184876073587, 51.48729834772373]}}, "title": "23-12-2017 : Ukraine's Poroshenko vows to work for quick exchange of prisoners: Germany (Ukraine-Germany)", "geometry": {"coordinates": [30.859189180759433, 48.01196617304257]}, "relation": -0.216},
{"link": "https://www.reuters.com/article/us-kosovo-usa-court/dont-scrap-war-crimes-court-u-s-warns-kosovo-idUSKBN1EG26S", "src": "https://s4.reutersmedia.net/resources_v2/images/rcom-default.png", "end": {"geometry": {"coordinates": [20.881175620885255, 42.19559884232581]}}, "title": "23-12-2017 : Don't scrap war crimes court, U.S. warns Kosovo (United States-Kosovo)", "geometry": {"coordinates": [-99.04840047267925, 38.587284134618024]}, "relation": 0.232},
{"link": "https://www.reuters.com/article/us-philippines-fire/fire-in-philippine-shopping-mall-kills-37-idUSKBN1EI015", "src": "https://s3.reutersmedia.net/resources/r/?m=02&d=20171224&t=2&i=1216868045&w=1200&r=LYNXMPEDBN0A5", "end": {"geometry": {"coordinates": [122.21375861846788, 12.972767427575226]}}, "title": "25-12-2017 : Fire in Philippine shopping mall kills 37 (United States-Philippines)", "geometry": {"coordinates": [-120.30894170063893, 41.1720339899576]}, "relation": -0.424},
{"link": "https://www.reuters.com/article/us-sudan-turkey/sudan-turkey-to-set-up-strategic-cooperation-council-boost-trade-ties-idUSKBN1EI0GI", "src": "https://s3.reutersmedia.net/resources/r/?m=02&d=20171224&t=2&i=1216941352&w=1200&r=LYNXMPEDBN0G7", "end": {"geometry": {"coordinates": [35.120016641035136, 39.024312677372826]}}, "title": "25-12-2017 : Sudan, Turkey to set up 'strategic cooperation council', boost trade ties (Sudan-Turkey)", "geometry": {"coordinates": [30.19198567935337, 12.870196997083196]}, "relation": 0.184},
{"link": "https://www.reuters.com/article/us-pakistan-india/pakistan-allows-wife-mother-to-visit-indian-man-sentenced-to-death-idUSKBN1EJ0IW", "src": "https://s1.reutersmedia.net/resources/r/?m=02&d=20171225&t=2&i=1217105062&w=1200&r=LYNXMPEDBO0C0", "end": {"geometry": {"coordinates": [82.43024274892593, 16.79748695247655]}}, "title": "26-12-2017 : Pakistan allows wife, mother to visit Indian man sentenced to death (Pakistan-India)", "geometry": {"coordinates": [66.64893964572917, 30.672345915717187]}, "relation": -0.312},
{"link": "https://www.reuters.com/article/us-kazakhstan-kyrgyzstan/kazakhstan-kyrgyzstan-pledge-to-improve-ties-in-wake-of-trade-war-idUSKBN1EJ0NU", "src": "https://s4.reutersmedia.net/resources/r/?m=02&d=20171225&t=2&i=1217125256&w=1200&r=LYNXMPEDBO0FW", "end": {"geometry": {"coordinates": [74.61041214222065, 41.63012857083008]}}, "title": "26-12-2017 : Kazakhstan, Kyrgyzstan pledge to improve ties in wake of trade war (Kazakhstan-Kyrgyzstan)", "geometry": {"coordinates": [66.57416600471964, 48.28429171917661]}, "relation": -0.219},
{"link": "https://www.reuters.com/article/us-usa-trump-israel-guatemala/israel-praises-guatemala-over-jerusalem-embassy-move-idUSKBN1EJ0EJ", "src": "https://s3.reutersmedia.net/resources/r/?m=02&d=20171225&t=2&i=1217163860&w=1200&r=LYNXMPEDBO0JM", "end": {"geometry": {"coordinates": [35.10447283128128, 31.58590788265206]}}, "title": "26-12-2017 : 'God bless you', Netanyahu tells Guatemalan president over Jerusalem embassy move (Guatemala-Israel)", "geometry": {"coordinates": [-90.04315506651102, 15.405636480115724]}, "relation": 0.308},
{"link": "https://www.reuters.com/article/us-europe-migrants-italy/italy-rescues-more-than-250-migrants-in-mediterranean-idUSKBN1EK0PR", "src": "https://s4.reutersmedia.net/resources_v2/images/rcom-default.png", "end": {"geometry": {"coordinates": [17.654741154270855, 34.08550654950796]}}, "title": "27-12-2017 : Italy rescues more than 250 migrants in Mediterranean (Italy-Mediterranean Sea)", "geometry": {"coordinates": [12.240769353640092, 42.19589564985184]}, "relation": 0.187},
{"link": "https://www.reuters.com/article/us-britain-russia-ship/britain-escorts-russian-ship-near-national-waters-amid-strained-relations-idUSKBN1EK007", "src": "https://s1.reutersmedia.net/resources/r/?m=02&d=20171226&t=2&i=1217197672&w=1200&r=LYNXMPEDBP001", "end": {"geometry": {"coordinates": [105.31892627297259, 62.075248564669955]}}, "title": "27-12-2017 : Britain escorts Russian ship near national waters amid strained relations (United Kingdom-Russia)", "geometry": {"coordinates": [-3.503429446449035, 55.36338445108789]}, "relation": -0.184},
{"link": "https://www.reuters.com/article/uk-egypt-britain-trial/british-woman-sentenced-in-egypt-to-three-years-in-jail-for-smuggling-painkillers-idUSKBN1EK0T6", "src": "https://s4.reutersmedia.net/resources_v2/images/rcom-default.png", "end": {"geometry": {"coordinates": [33.46441862714736, 29.22251637297438]}}, "title": "27-12-2017 : British woman sentenced in Egypt to three years in jail for smuggling painkillers (United Kingdom-Egypt)", "geometry": {"coordinates": [-3.606661688996735, 55.659981486644995]}, "relation": -0.231},
{"link": "https://www.reuters.com/article/us-russia-usa-northkorea/russias-lavrov-tells-tillerson-u-s-aggressive-rhetoric-on-korea-unacceptable-idUSKBN1EK17H", "src": "https://s4.reutersmedia.net/resources/r/?m=02&d=20171226&t=2&i=1217323355&w=1200&r=LYNXMPEDBP0Q8", "end": {"geometry": {"coordinates": [128.27653556703558, 37.760531706807484]}}, "title": "27-12-2017 : Russia's Lavrov tells Tillerson U.S. 'aggressive rhetoric' on Korea unacceptable (Russia-Korea)", "geometry": {"coordinates": [100.85043011407073, 65.51934767425988]}, "relation": -0.315},
{"link": "https://www.reuters.com/article/us-southkorea-japan-comfortwomen-kono/japan-says-revising-comfort-women-agreement-with-south-korea-unacceptable-idUSKBN1EL0JF", "src": "https://s1.reutersmedia.net/resources/r/?m=02&d=20171227&t=2&i=1217453710&w=1200&r=LYNXMPEDBQ0E0", "end": {"geometry": {"coordinates": [127.4287247545143, 35.81361011448701]}}, "title": "28-12-2017 : Japan says revising comfort women agreement with South Korea unacceptable (Japan-South Korea)", "geometry": {"coordinates": [138.2875756307335, 36.65464998133036]}, "relation": 0.305},
{"link": "https://www.reuters.com/article/us-mideast-crisis-syria-russia-usa/russia-accuses-u-s-of-training-former-islamic-state-fighters-in-syria-idUSKBN1EL0KZ", "src": "https://s3.reutersmedia.net/resources/r/?m=02&d=20171227&t=2&i=1217458835&w=1200&r=LYNXMPEDBQ0EN", "end": {"geometry": {"coordinates": [-94.38422818071993, 37.236339059824246]}}, "title": "28-12-2017 : Russia accuses U.S. of training former Islamic State fighters in Syria (Russia-United States)", "geometry": {"coordinates": [108.04961432493872, 62.00156370519639]}, "relation": -0.231},
{"link": "https://www.reuters.com/article/us-nigeria-usa/nigerian-air-force-says-united-states-agrees-to-sell-fighter-planes-to-nigeria-statement-idUSKBN1EL1EN", "src": "https://s4.reutersmedia.net/resources/r/?m=02&d=20171227&t=2&i=1217540837&w=1200&r=LYNXMPEDBQ0WX", "end": {"geometry": {"coordinates": [-93.90821114960238, 36.00674813393623]}}, "title": "28-12-2017 : Nigeria says U.S. agrees delayed $593 million fighter plane sale (Nigeria-United States)", "geometry": {"coordinates": [8.639674540124494, 9.527335483488551]}, "relation": 0.222},
{"link": "https://www.reuters.com/article/us-gulf-qatar-kuwait/kuwait-says-gcc-to-keep-operating-despite-qatar-crisis-idUSKBN1EL1HT", "src": "https://s4.reutersmedia.net/resources_v2/images/rcom-default.png", "end": {"geometry": {"coordinates": [51.24518862225056, 25.22706610403869]}}, "title": "28-12-2017 : Kuwait says GCC to keep operating despite Qatar crisis (Kuwait-Qatar)", "geometry": {"coordinates": [47.30179369401835, 29.245429328358455]}, "relation": 0.248},
{"link": "https://www.reuters.com/article/us-mexico-drugs-brazil/brazil-arrests-alleged-member-of-feared-mexican-drug-gang-idUSKBN1EM008", "src": "https://s4.reutersmedia.net/resources_v2/images/rcom-default.png", "end": {"geometry": {"coordinates": [-104.27232673116804, 23.580605940054916]}}, "title": "28-12-2017 : Brazil arrests alleged member of feared Mexican drug gang (Brazil-Mexico)", "geometry": {"coordinates": [-51.81739838773416, -16.812606412685646]}, "relation": -0.404},
{"link": "https://www.reuters.com/article/us-argentina-grains-blast/explosion-hits-argentinas-grains-hub-rosario-export-chamber-idUSKBN1EL1HD", "src": "https://s4.reutersmedia.net/resources_v2/images/rcom-default.png", "end": {"geometry": {"coordinates": [109.0992143129211, 40.65865369087393]}}, "title": "28-12-2017 : Argentine port blast kills one, injures others: China's COFCO (Argentina-China)", "geometry": {"coordinates": [-66.40620175814655, -36.99468073298568]}, "relation": -0.259},
{"link": "https://www.reuters.com/article/us-iceland-tourism-china-accident/chinese-tourist-killed-several-injured-in-bus-accident-in-iceland-idUSKBN1EL1O1", "src": "https://s4.reutersmedia.net/resources_v2/images/rcom-default.png", "end": {"geometry": {"coordinates": [-19.047314421585956, 64.89945234238138]}}, "title": "29-12-2017 : Chinese tourist killed, several injured in bus accident in Iceland (China-Iceland)", "geometry": {"coordinates": [104.09269048184001, 32.06012838101429]}, "relation": -0.534},
{"link": "https://www.reuters.com/article/us-china-drugs-usa/china-says-u-s-should-do-more-to-cut-its-enormous-opioid-demand-idUSKBN1EN07V", "src": "https://s4.reutersmedia.net/resources_v2/images/rcom-default.png", "end": {"geometry": {"coordinates": [-97.52673006217195, 39.95339054228887]}}, "title": "29-12-2017 : China says U.S. should do more to cut its 'enormous' opioid demand (China-United States)", "geometry": {"coordinates": [105.94441875477426, 31.029722637905014]}, "relation": -0.23},
{"link": "https://www.reuters.com/article/us-singapore-railway/current-former-singapore-transit-employees-charged-in-7-3-million-cheating-scheme-idUSKBN1EN0EW", "src": "https://s4.reutersmedia.net/resources/r/?m=02&d=20171229&t=2&i=1217902376&w=1200&r=LYNXMPEDBS0AR", "end": {"geometry": {"coordinates": [103.7908777048385, 1.512230486267468]}}, "title": "30-12-2017 : Current, former Singapore transit employees charged in $7.3 million cheating scheme (United States-Singapore)", "geometry": {"coordinates": [-94.0845600942179, 32.50145205242089]}, "relation": -0.31},
{"link": "https://www.reuters.com/article/us-china-norway-trade/norway-says-made-good-progress-in-china-trade-talks-idUSKBN1EN0Q7", "src": "https://s4.reutersmedia.net/resources_v2/images/rcom-default.png", "end": {"geometry": {"coordinates": [105.36334377145278, 31.652476243065525]}}, "title": "30-12-2017 : Norway says made 'good progress' in China trade talks (Norway-China)", "geometry": {"coordinates": [8.512240678431814, 60.47193298361314]}, "relation": 0.388},
{"link": "https://www.reuters.com/article/us-taiwan-president/taiwan-president-says-islands-defense-budget-to-grow-given-china-pressures-idUSKBN1EN0JU", "src": "https://s4.reutersmedia.net/resources/r/?m=02&d=20171229&t=2&i=1217969311&w=1200&r=LYNXMPEDBS0DR", "end": {"geometry": {"coordinates": [102.66099188549128, 35.99761113949109]}}, "title": "30-12-2017 : Taiwan president warns China against military aggression (Taiwan-China)", "geometry": {"coordinates": [120.57069121245077, 23.504311263518755]}, "relation": -0.34},
{"link": "https://www.reuters.com/article/us-iran-economy-protests-usa/u-s-condemns-arrest-of-peaceful-protesters-in-iran-idUSKBN1EN1ST", "src": "https://s4.reutersmedia.net/resources_v2/images/rcom-default.png", "end": {"geometry": {"coordinates": [51.76362238806814, 32.92339699962471]}}, "title": "30-12-2017 : U.S. condemns arrest of peaceful protesters in Iran (United States-Iran)", "geometry": {"coordinates": [-96.04589993201427, 35.07668798035054]}, "relation": -0.427},
{"link": "https://www.reuters.com/article/us-northkorea-missiles/south-korea-seizes-hk-flagged-vessel-it-says-transferred-oil-to-north-korea-idUSKBN1EN0D3", "src": "https://s2.reutersmedia.net/resources/r/?m=02&d=20171229&t=2&i=1217922933&w=1200&r=LYNXMPEDBS0EG", "end": {"geometry": {"coordinates": [127.36879200775196, 39.97509321321749]}}, "title": "30-12-2017 : After Trump criticism, China denies selling oil illicitly to North Korea (China-North Korea)", "geometry": {"coordinates": [108.17473685334723, 34.99095804080703]}, "relation": -0.322}
] }
